[
  {
    "rank": 26,
    "name": "Hilton San Francisco Union Square",
    "lat": 37.785399,
    "lon": -122.410968
  },
  {
    "rank": 27,
    "name": "Pacific Gas & Electric Building",
    "lat": 37.79178,
    "lon": -122.395772
  },
  {
    "rank": 28,
    "name": "50 California Street",
    "lat": 37.794083,
    "lon": -122.39744
  },
  {
    "rank": 29,
    "name": "555 Mission Street",
    "lat": 37.78853,
    "lon": -122.3985507
  },
  {
    "rank": 30,
    "name": "St. Regis Museum Tower",
    "lat": 37.786359,
    "lon": -122.40133
  },
  {
    "rank": 31,
    "name": "100 Pine Center",
    "lat": 37.79261,
    "lon": -122.399003
  },
  {
    "rank": 32,
    "name": "45 Fremont Street",
    "lat": 37.791237,
    "lon": -122.397162
  },
  {
    "rank": 33,
    "name": "333 Market Street",
    "lat": 37.791945,
    "lon": -122.39742
  },
  {
    "rank": 34,
    "name": "650 California Street",
    "lat": 37.79287,
    "lon": -122.405216
  },
  {
    "rank": 35,
    "name": "100 First Plaza",
    "lat": 37.789297,
    "lon": -122.39756
  },
  {
    "rank": 36,
    "name": "340 Fremont Street",
    "lat": 37.78703,
    "lon": -122.3928
  },
  {
    "rank": 37,
    "name": "One California",
    "lat": 37.793225,
    "lon": -122.397213
  },
  {
    "rank": 38,
    "name": "San Francisco Marriott Marquis",
    "lat": 37.785381,
    "lon": -122.404299
  },
  {
    "rank": 39,
    "name": "140 New Montgomery",
    "lat": 37.786735,
    "lon": -122.400012
  },
  {
    "rank": 40,
    "name": "Russ Building",
    "lat": 37.791426,
    "lon": -122.402733
  },
  {
    "rank": 41,
    "name": "500 Folsom",
    "lat": 37.78727,
    "lon": -122.39511
  },
  {
    "rank": 42,
    "name": "415 Natoma Street",
    "lat": 37.7814,
    "lon": -122.40587
  },
  {
    "rank": 43,
    "name": "Jasper",
    "lat": 37.785853,
    "lon": -122.39375
  },
  {
    "rank": 44,
    "name": "MIRA",
    "lat": 37.79012,
    "lon": -122.3915
  },
  {
    "rank": 45,
    "name": "505 Montgomery Street",
    "lat": 37.793983,
    "lon": -122.40336
  },
  {
    "rank": 46,
    "name": "Fifteen Fifty",
    "lat": 37.773755,
    "lon": -122.418341
  },
  {
    "rank": 47,
    "name": "JPMorgan Chase Building",
    "lat": 37.788805,
    "lon": -122.39947
  },
  {
    "rank": 48,
    "name": "The Infinity II",
    "lat": 37.789427,
    "lon": -122.390644
  },
  {
    "rank": 49,
    "name": "The Paramount",
    "lat": 37.786728,
    "lon": -122.401956
  },
  {
    "rank": 50,
    "name": "Providian Financial Building",
    "lat": 37.791244,
    "lon": -122.395006
  }
]